$GPGGA,030507.00,4044.71528,N,07401.49728,W,1,08,0.92,43.4,M,-34.4,M,,*5E
$GPGGA,030508.00,4044.71533,N,07401.49727,W,1,08,0.92,43.3,M,-34.4,M,,*53
$GPGGA,030509.00,4044.71538,N,07401.49728,W,1,08,0.92,43.2,M,-34.4,M,,*57
$GPGGA,030510.00,4044.71543,N,07401.49732,W,1,08,0.92,43.0,M,-34.4,M,,*5A
$GPGSA,A,3,03,17,30,21,06,01,19,24,,,,,2.27,0.92,2.07*07
$GPTXT,01,01,01,NMEA unknown msg*58
$GPGSV,3,1,12,01,47,050,37,03,29,111,29,06,22,215,19,07,06,179,08*77
$GPGSV,3,2,12,14,89,075,,17,64,307,16,19,41,278,26,21,22,047,31*7C
$GPGSV,3,3,12,22,32,082,09,24,05,326,22,28,66,317,17,30,27,200,25*76
$GPGLL,4044.71543,N,07401.49732,W,030510.00,A,A*75
$GPRMC,030511.00,A,4044.71548,N,07401.49732,W,0.066,,171221,,,A*60
$GPVTG,,T,,M,0.066,N,0.122,K,A*22
$GPGGA,030511.00,4044.71548,N,07401.49732,W,1,08,0.92,42.8,M,-34.4,M,,*59
$GPGSA,A,3,03,17,30,21,06,01,19,24,,,,,2.27,0.92,2.07*07

$GPGSV,3,1,12,01,47,050,37,03,29,111,29,06,22,215,19,07,06,179,08*77

$GPGSV,3,2,12,14,89,075,,17,64,307,16,19,41,278,25,21,22,047,31*7F

$GPTXT,01,01,01,NMEA unknown msg*58

$GPGSV,3,3,12,22,32,082,09,24,05,326,22,28,66,317,18,30,27,200,26*7A

$GPGLL,4044.71548,N,07401.49732,W,030511.00,A,A*7F

$GPTXT,01,01,01,NMEA unknown msg*58

$GPRMC,030512.00,A,4044.71551,N,07401.49730,W,0.047,,171221,,,A*6A

$GPVTG,,T,,M,0.047,N,0.087,K,A*2F

$GPGGA,030512.00,4044.71551,N,07401.49730,W,1,08,0.92,42.7,M,-34.4,M,,*5F

$GPGSA,A,3,03,17,30,21,06,01,19,24,,,,,2.27,0.92,2.07*07

$GPTXT,01,01,01,NMEA unknown msg*58

$GPGSV,3,1,12,01,47,050,37,03,29,111,30,06,22,215,20,07,06,179,08*75

$GPGSV,3,2,12,14,89,075,,17,64,307,16,19,41,278,25,21,22,047,31*7F

$GPTXT,01,01,01,NMEA unknown msg*58

$GPGSV,3,3,12,22,32,082,09,24,05,326,22,28,66,317,18,30,27,200,26*7A

$GPGLL,4044.71551,N,07401.49730,W,030512.00,A,A*76

$GPRMC,030513.00,A,4044.71553,N,07401.49724,W,0.105,,171221,,,A*6B

$GPVTG,,T,,M,0.105,N,0.194,K,A*2B

$GPGGA,030513.00,4044.71553,N,07401.49724,W,1,08,0.92,42.7,M,-34.4,M,,*59

$GPGSA,A,3,03,17,30,21,06,01,19,24,,,,,2.27,0.92,2.07*07

$GPGSV,3,1,12,01,47,050,37,03,29,111,30,06,22,215,20,07,06,179,08*75

$GPGSV,3,2,12,14,89,075,,17,64,307,16,19,41,278,25,21,22,047,31*7F

$GPGSV,3,3,12,22,32,082,09,24,05,325,22,28,66,317,18,30,27,200,26*79

$GPGLL,4044.71553,N,07401.49724,W,030513.00,A,A*70

$GPRMC,030514.00,A,4044.71554,N,07401.49720,W,0.109,,171221,,,A*63

$GPVTG,,T,,M,0.109,N,0.201,K,A*28

$GPGGA,030514.00,4044.71554,N,07401.49720,W,1,09,0.92,42.7,M,-34.4,M,,*5C

$GPGSA,A,3,03,17,30,21,06,01,07,19,24,,,,2.27,0.92,2.07*00

$GPGSV,3,1,12,01,47,050,37,03,29,111,30,06,22,215,19,07,06,179,08*7F

$GPGSV,3,2,12,14,89,075,,17,64,307,18,19,41,278,25,21,22,047,31*71

$GPTXT,01,01,01,NMEA unknown msg*58

$GPGSV,3,3,12,22,32,082,12,24,05,325,22,28,66,317,17,30,27,200,27*7D

$GPGLL,4044.71554,N,07401.49720,W,030514.00,A,A*74

$GPRMC,030515.00,A,4044.71559,N,07401.49714,W,0.116,,171221,,,A*66

$GPVTG,,T,,M,0.116,N,0.215,K,A*23

$GPGGA,030515.00,4044.71559,N,07401.49714,W,1,09,0.92,42.7,M,-34.4,M,,*57

$GPGSA,A,3,03,17,30,21,06,01,07,19,24,,,,2.27,0.92,2.07*00

$GPTXT,01,01,01,NMEA unknown msg*58

$GPGSV,3,1,12,01,47,050,37,03,29,111,30,06,22,215,19,07,06,179,08*7F

$GPGSV,3,2,12,14,89,075,07,17,64,307,18,19,41,278,25,21,22,047,31*76

$GPTXT,01,01,01,NMEA unknown msg*58

$GPGSV,3,3,12,22,32,082,12,24,05,325,22,28,66,317,17,30,27,200,27*7D

$GPGLL,4044.71559,N,07401.49714,W,030515.00,A,A*7F

$GPRMC,030516.00,A,4044.71567,N,07401.49710,W,0.130,,171221,,,A*68

$GPVTG,,T,,M,0.130,N,0.241,K,A*26

$GPGGA,030516.00,4044.71567,N,07401.49710,W,1,09,0.92,42.5,M,-34.4,M,,*5F

$GPGSA,A,3,03,17,30,21,06,01,07,19,24,,,,2.27,0.92,2.07*00

$GPGSV,3,1,12,01,47,050,37,03,29,111,29,06,22,215,18,07,06,179,08*76

$GPGSV,3,2,12,14,89,075,12,17,64,307,18,19,41,278,25,21,22,047,31*72

$GPTXT,01,01,01,NMEA unknown msg*58

$GPGSV,3,3,12,22,32,082,12,24,05,325,22,28,66,317,18,30,27,200,27*72

$GPTXT,01,01,01,NMEA unknown msg*58

$GPGLL,4044.71567,N,07401.49710,W,030516.00,A,A*75

$GPRMC,030517.00,A,4044.71567,N,07401.49700,W,0.123,,171221,,,A*6A

$GPVTG,,T,,M,0.123,N,0.228,K,A*2B

$GPGGA,030517.00,4044.71567,N,07401.49700,W,1,09,0.81,42.4,M,-34.4,M,,*5C

$GPGSA,A,3,03,17,30,21,06,01,07,19,24,,,,1.57,0.81,1.35*04

$GPTXT,01,01,01,NMEA unknown msg*58

$GPGSV,3,1,12,01,47,050,36,03,29,111,29,06,22,215,17,07,06,179,08*78

$GPGSV,3,2,12,14,89,075,16,17,64,307,18,19,41,278,25,21,22,047,31*76

$GPGSV,3,3,12,22,32,082,12,24,05,325,21,28,66,317,17,30,27,200,26*7F

$GPGLL,4044.71567,N,07401.49700,W,030517.00,A,A*75

$GPRMC,030518.00,A,4044.71572,N,07401.49697,W,0.058,,171221,,,A*63

$GPVTG,,T,,M,0.058,N,0.107,K,A*28

$GPGGA,030518.00,4044.71572,N,07401.49697,W,1,09,0.81,42.2,M,-34.4,M,,*5E

$GPTXT,01,01,01,NMEA unknown msg*58

$GPGSA,A,3,03,17,30,21,06,01,07,19,24,,,,1.57,0.81,1.35*04

$GPGSV,3,1,12,01,47,050,37,03,29,111,29,06,22,215,17,07,06,179,08*79

$GPGSV,3,2,12,14,89,075,16,17,64,307,18,19,41,278,25,21,22,047,31*76

$GPTXT,01,01,01,NMEA unknown msg*58

$GPGSV,3,3,12,22,32,082,12,24,05,325,20,28,66,317,17,30,27,200,26*7E

$GPGLL,4044.71572,N,07401.49697,W,030518.00,A,A*71

$GPRMC,030519.00,A,4044.71579,N,07401.49696,W,0.178,,171221,,,A*6B

$GPVTG,,T,,M,0.178,N,0.329,K,A*25

$GPGGA,030519.00,4044.71579,N,07401.49696,W,1,10,0.81,42.1,M,-34.4,M,,*5E

$GPGSA,A,3,14,03,17,30,21,06,01,07,19,24,,,1.38,0.81,1.11*0E

$GPGSV,3,1,12,01,47,050,37,03,29,111,29,06,22,215,17,07,06,179,08*79

$GPGSV,3,2,12,14,89,075,14,17,64,307,18,19,41,278,26,21,22,047,31*77

$GPGSV,3,3,12,22,32,082,12,24,05,325,20,28,66,317,17,30,26,200,26*7F

$GPGLL,4044.71579,N,07401.49696,W,030519.00,A,A*7A

$GPRMC,030520.00,A,4044.71587,N,07401.49697,W,0.219,,171221,,,A*65

$GPVTG,,T,,M,0.219,N,0.405,K,A*28

$GPGGA,030520.00,4044.71587,N,07401.49697,W,1,10,0.81,41.9,M,-34.4,M,,*5F

$GPTXT,01,01,01,NMEA unknown msg*58

$GPGSA,A,3,14,03,17,30,21,06,01,07,19,24,,,1.38,0.81,1.11*0E

$GPTXT,01,01,01,NMEA unknown msg*58

$GPGSV,3,1,12,01,47,050,37,03,29,111,29,06,22,215,17,07,06,179,11*71

$GPGSV,3,2,12,14,89,075,14,17,64,307,17,19,41,278,26,21,22,047,31*78

$GPGSV,3,3,12,22,32,082,17,24,05,325,19,28,66,317,16,30,26,200,27*70

$GPGLL,4044.71587,N,07401.49697,W,030520.00,A,A*70

$GPTXT,01,01,01,NMEA unknown msg*58

$GPRMC,030521.00,A,4044.71594,N,07401.49703,W,0.208,,171221,,,A*6A

$GPVTG,,T,,M,0.208,N,0.386,K,A*24

$GPGGA,030521.00,4044.71594,N,07401.49703,W,1,10,0.81,41.9,M,-34.4,M,,*50

$GPGSA,A,3,14,03,17,30,21,06,01,07,19,24,,,1.38,0.81,1.11*0E

$GPGSV,3,1,12,01,47,050,37,03,29,111,30,06,22,215,18,07,06,179,11*76

$GPGSV,3,2,12,14,89,075,12,17,64,307,20,19,41,278,26,21,22,047,32*79

$GPGSV,3,3,12,22,32,082,19,24,05,325,19,28,66,317,15,30,26,200,27*7D

$GPGLL,4044.71594,N,07401.49703,W,030521.00,A,A*7F

$GPRMC,030522.00,A,4044.71596,N,07401.49700,W,0.081,,171221,,,A*6B

$GPVTG,,T,,M,0.081,N,0.151,K,A*2F

$GPGGA,030522.00,4044.71596,N,07401.49700,W,1,10,0.81,41.9,M,-34.4,M,,*52

$GPTXT,01,01,01,NMEA unknown msg*58

$GPGSA,A,3,14,03,17,30,21,06,01,07,19,24,,,1.38,0.81,1.11*0E

$GPGSV,3,1,12,01,47,050,37,03,29,111,30,06,22,215,17,07,06,179,11*79

$GPGSV,3,2,12,14,89,075,12,17,64,307,22,19,41,278,26,21,22,047,32*7B

$GPGSV,3,3,12,22,32,082,19,24,05,325,18,28,66,317,15,30,26,200,27*7C

$GPGLL,4044.71596,N,07401.49700,W,030522.00,A,A*7D

$GPRMC,030523.00,A,4044.71599,N,07401.49699,W,0.131,,171221,,,A*6E

$GPVTG,,T,,M,0.131,N,0.242,K,A*24

$GPGGA,030523.00,4044.71599,N,07401.49699,W,1,10,0.81,41.7,M,-34.4,M,,*53

$GPGSA,A,3,14,03,17,30,21,06,01,07,19,24,,,1.38,0.81,1.11*0E

$GPGSV,3,1,12,01,47,050,37,03,29,111,30,06,22,215,17,07,06,179,11*79

$GPGSV,3,2,12,14,89,075,12,17,64,307,22,19,41,278,25,21,22,047,32*78

$GPGSV,3,3,12,22,32,082,19,24,05,325,19,28,66,317,15,30,26,200,26*7C

$GPGLL,4044.71599,N,07401.49699,W,030523.00,A,A*72

$GPRMC,030524.00,A,4044.71599,N,07401.49697,W,0.065,,171221,,,A*67

$GPVTG,,T,,M,0.065,N,0.121,K,A*22

$GPGGA,030524.00,4044.71599,N,07401.49697,W,1,10,0.81,41.5,M,-34.4,M,,*58

$GPGSA,A,3,14,03,17,30,21,06,01,07,19,24,,,1.38,0.81,1.11*0E

$GPTXT,01,01,01,NMEA unknown msg*58

$GPGSV,3,1,12,01,47,050,37,03,29,111,30,06,22,215,17,07,06,179,11*79

$GPGSV,3,2,12,14,89,075,12,17,64,307,23,19,41,278,24,21,22,047,32*78

$GPGSV,3,3,12,22,32,082,19,24,05,325,18,28,66,317,15,30,26,200,26*7D

$GPGLL,4044.71599,N,07401.49697,W,030524.00,A,A*7B

$GPRMC,030525.00,A,4044.71602,N,07401.49693,W,0.085,,171221,,,A*6D

$GPVTG,,T,,M,0.085,N,0.157,K,A*2D

$GPGGA,030525.00,4044.71602,N,07401.49693,W,1,10,0.85,41.4,M,-34.4,M,,*59

$GPGSA,A,3,14,03,17,30,21,06,01,07,19,24,,,1.41,0.85,1.12*07

$GPGSV,3,1,12,01,47,050,36,03,29,111,30,06,22,215,17,07,06,179,11*78

$GPGSV,3,2,12,14,89,075,13,17,64,307,23,19,41,278,24,21,22,047,32*79

$GPTXT,01,01,01,NMEA unknown msg*58

$GPGSV,3,3,12,22,32,082,19,24,05,325,18,28,66,317,14,30,26,200,26*7C

$GPGLL,4044.71602,N,07401.49693,W,030525.00,A,A*7F

$GPRMC,030526.00,A,4044.71604,N,07401.49692,W,0.095,,171221,,,A*68

$GPVTG,,T,,M,0.095,N,0.176,K,A*2F

$GPGGA,030526.00,4044.71604,N,07401.49692,W,1,10,0.85,41.4,M,-34.4,M,,*5D

$GPGSA,A,3,14,03,17,30,21,06,01,07,19,24,,,1.41,0.85,1.12*07

$GPGSV,3,1,12,01,47,050,36,03,29,111,30,06,22,215,17,07,06,179,12*7B

$GPGSV,3,2,12,14,89,075,11,17,64,307,24,19,41,278,23,21,22,047,32*7B

$GPGSV,3,3,12,22,32,082,19,24,05,325,19,28,66,317,12,30,26,200,26*7B

$GPTXT,01,01,01,NMEA unknown msg*58

$GPGLL,4044.71604,N,07401.49692,W,030526.00,A,A*7B

$GPRMC,030527.00,A,4044.71608,N,07401.49691,W,0.071,,171221,,,A*6C

$GPVTG,,T,,M,0.071,N,0.131,K,A*26

$GPGGA,030527.00,4044.71608,N,07401.49691,W,1,10,0.81,41.1,M,-34.4,M,,*52

$GPGSA,A,3,14,03,17,30,21,06,01,07,19,24,,,1.38,0.81,1.11*0E

$GPGSV,3,1,12,01,47,050,36,03,29,111,30,06,22,215,18,07,06,179,12*74

$GPGSV,3,2,12,14,89,075,10,17,64,307,24,19,41,278,23,21,22,047,32*7A

$GPTXT,01,01,01,NMEA unknown msg*58

$GPGSV,3,3,12,22,32,082,19,24,05,325,18,28,66,317,09,30,26,200,25*73

$GPGLL,4044.71608,N,07401.49691,W,030527.00,A,A*75

$GPRMC,030528.00,A,4044.71610,N,07401.49695,W,0.225,,171221,,,A*6D

$GPVTG,,T,,M,0.225,N,0.417,K,A*24

$GPGGA,030528.00,4044.71610,N,07401.49695,W,1,10,0.81,40.9,M,-34.4,M,,*59

$GPTXT,01,01,01,NMEA unknown msg*58

$GPTXT,01,01,01,NMEA unknown msg*58

$GPGSA,A,3,14,03,17,30,21,06,01,07,19,24,,,1.38,0.81,1.11*0E

$GPGSV,3,1,12,01,47,050,36,03,29,111,30,06,22,215,18,07,06,179,12*74

$GPGSV,3,2,12,14,89,075,10,17,64,307,24,19,41,278,22,21,22,047,32*7B

$GPTXT,01,01,01,NMEA unknown msg*58

$GPGSV,3,3,12,22,32,082,19,24,05,325,18,28,66,317,09,30,26,200,25*73

$GPGLL,4044.71610,N,07401.49695,W,030528.00,A,A*77

$GPRMC,030529.00,A,4044.71612,N,07401.49697,W,0.136,,171221,,,A*6D

$GPVTG,,T,,M,0.136,N,0.252,K,A*22

$GPGGA,030529.00,4044.71612,N,07401.49697,W,1,10,0.81,40.9,M,-34.4,M,,*58

$GPTXT,01,01,01,NMEA unknown msg*58

$GPGSA,A,3,14,03,17,30,21,06,01,07,19,24,,,1.38,0.81,1.11*0E

$GPTXT,01,01,01,NMEA unknown msg*58

$GPGSV,3,1,12,01,47,050,35,03,29,111,30,06,22,215,17,07,06,179,12*78

$GPGSV,3,2,12,14,89,075,10,17,64,307,25,19,41,278,22,21,22,047,32*7A

$GPTXT,01,01,01,NMEA unknown msg*58

$GPGSV,3,3,12,22,32,082,19,24,05,325,18,28,66,317,09,30,26,200,25*73

$GPTXT,01,01,01,P2,0 inv format*42

$GPGLL,4044.71612,N,07401.49697,W,030529.00,A,A*76

$GPRMC,030530.00,A,4044.71611,N,07401.49689,W,0.045,,171221,,,A*6C

$GPVTG,,T,,M,0.045,N,0.083,K,A*29

$GPGGA,030530.00,4044.71611,N,07401.49689,W,1,10,0.81,40.8,M,-34.4,M,,*5D

$GPGSA,A,3,14,03,17,30,21,06,01,07,19,24,,,1.57,0.81,1.34*00

$GPTXT,01,01,01,NMEA unknown msg*58

$GPGSV,3,1,12,01,47,050,35,03,29,111,30,06,22,215,16,07,06,179,12*79

$GPGSV,3,2,12,14,89,075,10,17,64,307,24,19,41,278,23,21,22,047,32*7A

$GPTXT,01,01,01,NMEA unknown msg*58

$GPGSV,3,3,12,22,32,082,20,24,05,325,17,28,66,317,08,30,26,200,24*76

$GPGLL,4044.71611,N,07401.49689,W,030530.00,A,A*72

$GPRMC,030531.00,A,4044.71611,N,07401.49684,W,0.078,,171221,,,A*6E

$GPVTG,,T,,M,0.078,N,0.145,K,A*2C

$GPGGA,030531.00,4044.71611,N,07401.49684,W,1,09,0.87,40.5,M,-34.4,M,,*52

$GPGSA,A,3,14,03,17,30,21,06,01,19,24,,,,1.75,0.87,1.52*01

$GPGSV,3,1,12,01,47,050,36,03,29,111,31,06,22,215,16,07,06,179,*78

$GPGSV,3,2,12,14,89,075,10,17,64,307,24,19,41,278,24,21,22,047,32*7D

$GPGSV,3,3,12,22,32,082,20,24,05,325,18,28,66,317,10,30,26,200,23*77

$GPGLL,4044.71611,N,07401.49684,W,030531.00,A,A*7E

$GPRMC,030532.00,A,4044.71606,N,07401.49673,W,0.199,,171221,,,A*6D

$GPVTG,,T,,M,0.199,N,0.368,K,A*2F

$GPGGA,030532.00,4044.71606,N,07401.49673,W,1,09,0.87,40.6,M,-34.4,M,,*5C

$GPGSA,A,3,14,03,17,30,21,06,01,19,24,,,,1.75,0.87,1.52*01

$GPTXT,01,01,01,NMEA unknown msg*58

$GPGSV,3,1,12,01,47,050,35,03,29,111,30,06,22,215,17,07,06,179,*7B

$GPGSV,3,2,12,14,89,075,07,17,64,307,23,19,41,278,24,21,22,047,33*7D

$GPGSV,3,3,12,22,32,082,20,24,05,325,17,28,66,317,09,30,26,200,23*70

$GPGLL,4044.71606,N,07401.49673,W,030532.00,A,A*73

$GPTXT,01,01,01,NMEA unknown msg*58

$GPRMC,030533.00,A,4044.71601,N,07401.49656,W,0.327,,171221,,,A*6B

$GPVTG,,T,,M,0.327,N,0.606,K,A*25

$GPGGA,030533.00,4044.71601,N,07401.49656,W,1,09,0.87,40.5,M,-34.4,M,,*5E

$GPGSA,A,3,14,03,17,30,21,06,01,19,24,,,,1.75,0.87,1.52*01

$GPGSV,3,1,12,01,47,050,35,03,29,111,30,06,22,215,16,07,06,179,*7A

$GPGSV,3,2,12,14,89,075,07,17,64,307,22,19,41,278,25,21,22,047,32*7C

$GPGSV,3,3,12,22,32,082,20,24,05,325,17,28,66,317,09,30,26,200,23*70

$GPGLL,4044.71601,N,07401.49656,W,030533.00,A,A*72

$GPRMC,030534.00,A,4044.71602,N,07401.49627,W,0.454,,171221,,,A*6A

$GPVTG,,T,,M,0.454,N,0.841,K,A*2B

$GPGGA,030534.00,4044.71602,N,07401.49627,W,1,08,0.96,40.4,M,-34.4,M,,*5C

$GPGSA,A,3,14,03,17,30,21,01,19,24,,,,,1.62,0.96,1.31*04

$GPTXT,01,01,01,NMEA unknown msg*58

$GPTXT,01,01,01,NMEA unknown msg*58

$GPGSV,3,1,12,01,47,049,35,03,29,111,30,06,22,215,15,07,06,179,*71

$GPGSV,3,2,12,14,89,075,07,17,64,307,22,19,41,278,24,21,22,047,33*7C

$GPGSV,3,3,12,22,32,082,20,24,05,325,16,28,66,317,,30,26,200,23*78

$GPGLL,4044.71602,N,07401.49627,W,030534.00,A,A*70

$GPRMC,030535.00,A,4044.71591,N,07401.49626,W,0.372,,171221,,,A*60

$GPVTG,,T,,M,0.372,N,0.689,K,A*22

$GPGGA,030535.00,4044.71591,N,07401.49626,W,1,09,0.87,40.3,M,-34.4,M,,*53

$GPTXT,01,01,01,NMEA unknown msg*58

$GPGSA,A,3,14,03,17,30,21,06,01,19,24,,,,1.75,0.87,1.52*01

$GPGSV,3,1,12,01,47,049,35,03,29,111,30,06,22,215,15,07,06,179,*71

$GPGSV,3,2,12,14,89,075,07,17,64,307,22,19,41,278,23,21,22,047,32*7A

$GPGSV,3,3,12,22,32,082,20,24,05,325,17,28,66,317,06,30,26,200,22*7E

$GPGLL,4044.71591,N,07401.49626,W,030535.00,A,A*79

$GPRMC,030536.00,A,4044.71590,N,07401.49616,W,0.212,,171221,,,A*66

$GPVTG,,T,,M,0.212,N,0.392,K,A*2A

$GPGGA,030536.00,4044.71590,N,07401.49616,W,1,09,0.87,40.3,M,-34.4,M,,*52

$GPTXT,01,01,01,NMEA unknown msg*58

$GPGSA,A,3,14,03,17,30,21,06,01,19,24,,,,1.75,0.87,1.52*01

$GPGSV,3,1,12,01,47,049,33,03,29,111,29,06,22,215,14,07,06,179,*7E

$GPGSV,3,2,12,14,89,075,07,17,64,307,21,19,41,278,22,21,22,047,32*78

$GPGSV,3,3,12,22,32,082,19,24,05,325,18,28,66,317,07,30,26,200,22*7A

$GPGLL,4044.71590,N,07401.49616,W,030536.00,A,A*78

$GPRMC,030537.00,A,4044.71589,N,07401.49618,W,0.108,,171221,,,A*69

$GPVTG,,T,,M,0.108,N,0.200,K,A*28

$GPGGA,030537.00,4044.71589,N,07401.49618,W,1,09,0.96,40.4,M,-34.4,M,,*52

$GPGSA,A,3,14,03,17,30,21,06,01,19,24,,,,1.62,0.96,1.31*02

$GPGSV,3,1,12,01,47,049,35,03,29,111,29,06,22,215,14,07,06,179,*78

$GPGSV,3,2,12,14,89,075,07,17,64,307,21,19,41,278,21,21,22,047,32*7B

$GPTXT,01,01,01,NMEA unknown msg*58

$GPGSV,3,3,12,22,32,082,20,24,05,325,18,28,66,317,10,30,26,200,22*76

$GPGLL,4044.71589,N,07401.49618,W,030537.00,A,A*7F

$GPRMC,030538.00,A,4044.71584,N,07401.49614,W,0.132,,171221,,,A*6E

$GPVTG,,T,,M,0.132,N,0.245,K,A*20

$GPGGA,030538.00,4044.71584,N,07401.49614,W,1,09,0.87,40.5,M,-34.4,M,,*5D

$GPTXT,01,01,01,NMEA unknown msg*58

$GPGSA,A,3,14,03,17,30,21,06,01,19,24,,,,1.75,0.87,1.52*01

$GPGSV,3,1,12,01,47,049,35,03,29,111,29,06,22,215,13,07,06,179,*7F

$GPGSV,3,2,12,14,89,075,13,17,64,307,21,19,41,278,21,21,22,047,32*7E

$GPGSV,3,3,12,22,32,082,21,24,05,325,18,28,66,317,11,30,26,200,22*76

$GPTXT,01,01,01,NMEA unknown msg*58

$GPGLL,4044.71584,N,07401.49614,W,030538.00,A,A*71

$GPRMC,030539.00,A,4044.71581,N,07401.49629,W,0.158,,171221,,,A*68

$GPVTG,,T,,M,0.158,N,0.293,K,A*27

$GPGGA,030539.00,4044.71581,N,07401.49629,W,1,09,0.87,40.3,M,-34.4,M,,*51

$GPGSA,A,3,14,03,17,30,21,06,01,19,24,,,,1.75,0.87,1.52*01

$GPGSV,3,1,12,01,47,049,34,03,29,111,29,06,22,215,13,07,06,179,*7E

$GPGSV,3,2,12,14,89,075,13,17,64,307,21,19,41,278,21,21,22,047,32*7E

$GPGSV,3,3,12,22,32,082,21,24,05,325,17,28,66,317,11,30,26,200,22*79

$GPGLL,4044.71581,N,07401.49629,W,030539.00,A,A*7B

$GPTXT,01,01,01,NMEA unknown msg*58

$GPRMC,030540.00,A,4044.71578,N,07401.49622,W,0.161,,171221,,,A*61

$GPVTG,,T,,M,0.161,N,0.298,K,A*26

$GPGGA,030540.00,4044.71578,N,07401.49622,W,1,09,0.87,40.3,M,-34.4,M,,*52

$GPGSA,A,3,14,03,17,30,21,06,01,19,24,,,,1.52,0.87,1.25*04

$GPTXT,01,01,01,NMEA unknown msg*58

$GPGSV,3,1,12,01,47,049,34,03,29,111,29,06,22,215,12,07,06,179,*7F

$GPGSV,3,2,12,14,89,075,13,17,64,307,20,19,41,278,21,21,22,047,33*7E

$GPGSV,3,3,12,22,32,082,21,24,05,325,18,28,66,317,11,30,26,200,22*76

$GPTXT,01,01,01,NMEA unknown msg*58

$GPGLL,4044.71578,N,07401.49622,W,030540.00,A,A*78

$GPRMC,030541.00,A,4044.71579,N,07401.49596,W,0.036,,171221,,,A*6E

$GPVTG,,T,,M,0.036,N,0.066,K,A*26

$GPGGA,030541.00,4044.71579,N,07401.49596,W,1,09,0.96,40.7,M,-34.4,M,,*5A

$GPTXT,01,01,01,NMEA unknown msg*58

$GPTXT,01,01,01,NMEA unknown msg*58

$GPTXT,01,01,01,NMEA unknown msg*58

$GPGSA,A,3,14,03,17,30,21,06,01,19,24,,,,1.62,0.96,1.31*02

$GPGSV,3,1,12,01,47,049,34,03,29,111,29,06,22,215,12,07,06,179,*7F

$GPGSV,3,2,12,14,89,075,13,17,64,307,21,19,41,278,20,21,22,047,33*7E

$GPGSV,3,3,12,22,32,082,21,24,05,325,18,28,66,317,10,30,26,200,22*77

$GPGLL,4044.71579,N,07401.49596,W,030541.00,A,A*74

$GPTXT,01,01,01,NMEA unknown msg*58

$GPRMC,030542.00,A,4044.71572,N,07401.49613,W,0.118,,171221,,,A*65

$GPVTG,,T,,M,0.118,N,0.219,K,A*21

$GPGGA,030542.00,4044.71572,N,07401.49613,W,1,09,0.87,40.6,M,-34.4,M,,*5D

$GPGSA,A,3,14,03,17,30,21,06,01,19,24,,,,1.52,0.87,1.25*04

$GPGSV,3,1,12,01,47,049,34,03,29,111,29,06,22,215,14,07,06,179,*79

$GPGSV,3,2,12,14,89,075,13,17,64,307,21,19,41,278,18,21,22,047,32*74

$GPGSV,3,3,12,22,32,082,22,24,05,325,17,28,66,317,10,30,26,200,22*7B

$GPGLL,4044.71572,N,07401.49613,W,030542.00,A,A*72

$GPRMC,030543.00,A,4044.71568,N,07401.49626,W,0.144,,171221,,,A*60

$GPVTG,,T,,M,0.144,N,0.267,K,A*21

$GPGGA,030543.00,4044.71568,N,07401.49626,W,1,09,0.87,40.5,M,-34.4,M,,*52

$GPGSA,A,3,14,03,17,30,21,06,01,19,24,,,,1.52,0.87,1.25*04

$GPGSV,3,1,12,01,47,049,34,03,29,111,29,06,22,215,15,07,06,179,*78

$GPGSV,3,2,12,14,89,075,13,17,64,307,21,19,41,278,17,21,22,047,33*7A

$GPGSV,3,3,12,22,32,082,22,24,05,325,17,28,66,317,10,30,26,200,22*7B

$GPGLL,4044.71568,N,07401.49626,W,030543.00,A,A*7E

$GPRMC,030544.00,A,4044.71568,N,07401.49609,W,0.188,,171221,,,A*6A

$GPVTG,,T,,M,0.188,N,0.348,K,A*2D

$GPGGA,030544.00,4044.71568,N,07401.49609,W,1,09,0.87,40.8,M,-34.4,M,,*55

$GPTXT,01,01,01,NMEA unknown msg*58

$GPGSA,A,3,14,03,17,30,21,06,01,19,24,,,,1.52,0.87,1.25*04

$GPGSV,3,1,12,01,47,049,35,03,29,111,29,06,22,215,16,07,06,179,*7A

$GPGSV,3,2,12,14,89,075,15,17,64,307,22,19,41,278,15,21,22,047,32*7C

$GPTXT,01,01,01,NMEA unknown msg*58

$GPGSV,3,3,12,22,32,082,22,24,05,325,18,28,66,317,11,30,26,200,21*76

$GPGLL,4044.71568,N,07401.49609,W,030544.00,A,A*74

$GPTXT,01,01,01,NMEA unknown msg*58

$GPTXT,01,01,01,NMEA unknown msg*58

$GPRMC,030545.00,A,4044.71558,N,07401.49615,W,0.181,,171221,,,A*6C

$GPVTG,,T,,M,0.181,N,0.336,K,A*2D

$GPGGA,030545.00,4044.71558,N,07401.49615,W,1,09,0.87,40.7,M,-34.4,M,,*55

$GPGSA,A,3,14,03,17,30,21,06,01,19,24,,,,1.52,0.87,1.25*04

$GPGSV,3,1,12,01,47,049,34,03,29,111,29,06,22,215,16,07,06,179,*7B

$GPGSV,3,2,12,14,89,075,17,17,64,307,22,19,41,278,14,21,22,047,33*7E

$GPTXT,01,01,01,NMEA unknown msg*58

$GPGSV,3,3,12,22,32,082,23,24,05,325,19,28,66,317,11,30,26,200,22*75

$GPTXT,01,01,01,NMEA unknown msg*58

$GPGLL,4044.71558,N,07401.49615,W,030545.00,A,A*7B

$GPTXT,01,01,01,NMEA unknown msg*58

$GPRMC,030546.00,A,4044.71555,N,07401.49636,W,0.222,,171221,,,A*69

$GPVTG,,T,,M,0.222,N,0.411,K,A*25

$GPGGA,030546.00,4044.71555,N,07401.49636,W,1,09,0.87,40.4,M,-34.4,M,,*59

$GPTXT,01,01,01,NMEA unknown msg*58

$GPTXT,01,01,01,NMEA unknown msg*58

$GPGSA,A,3,14,03,17,30,21,06,01,19,24,,,,1.52,0.87,1.25*04

$GPGSV,3,1,12,01,47,049,34,03,29,111,28,06,22,215,17,07,06,179,*7B

$GPGSV,3,2,12,14,89,075,18,17,64,307,22,19,41,278,13,21,22,047,33*76

$GPTXT,01,01,01,NMEA unknown msg*58

$GPGSV,3,3,12,22,32,082,23,24,05,325,19,28,66,317,11,30,26,200,22*75

$GPGLL,4044.71555,N,07401.49636,W,030546.00,A,A*74

$GPRMC,030547.00,A,4044.71550,N,07401.49649,W,0.051,,171221,,,A*63

$GPVTG,,T,,M,0.051,N,0.094,K,A*2A

$GPGGA,030547.00,4044.71550,N,07401.49649,W,1,08,0.94,40.6,M,-34.4,M,,*54

$GPGSA,A,3,14,03,17,30,21,06,01,24,,,,,1.58,0.94,1.27*06

$GPGSV,3,1,12,01,47,049,34,03,29,111,28,06,22,215,18,07,06,179,*74

$GPGSV,3,2,12,14,88,088,19,17,64,307,23,19,41,278,09,21,22,047,33*7E

$GPGSV,3,3,12,22,32,082,22,24,05,325,19,28,66,317,11,30,26,200,23*75

$GPGLL,4044.71550,N,07401.49649,W,030547.00,A,A*78

$GPRMC,030548.00,A,4044.71544,N,07401.49662,W,0.076,,171221,,,A*65

$GPVTG,,T,,M,0.076,N,0.141,K,A*26

$GPGGA,030548.00,4044.71544,N,07401.49662,W,1,08,0.94,40.7,M,-34.4,M,,*56

$GPGSA,A,3,14,03,17,30,21,06,01,24,,,,,1.58,0.94,1.27*06

$GPTXT,01,01,01,NMEA unknown msg*58

$GPGSV,3,1,12,01,47,049,34,03,29,111,28,06,22,215,18,07,06,179,*74

$GPGSV,3,2,12,14,88,088,18,17,64,307,23,19,41,278,08,21,22,047,33*7E

$GPTXT,01,01,01,PG48 inv format*27

$GPGSV,3,3,12,22,32,082,23,24,05,325,19,28,66,317,11,30,26,200,23*74

$GPGLL,4044.71544,N,07401.49662,W,030548.00,A,A*7B

$GPTXT,01,01,01,NMEA unknown msg*58

$GPRMC,030549.00,A,4044.71539,N,07401.49678,W,0.075,,171221,,,A*66

$GPVTG,,T,,M,0.075,N,0.138,K,A*2B

$GPGGA,030549.00,4044.71539,N,07401.49678,W,1,08,0.94,40.7,M,-34.4,M,,*56

$GPGSA,A,3,14,03,17,30,21,06,01,24,,,,,1.58,0.94,1.27*06

$GPGSV,3,1,12,01,47,049,34,03,29,111,28,06,22,215,17,07,06,179,*7B

$GPGSV,3,2,12,14,88,088,17,17,64,307,23,19,41,278,08,21,22,047,33*71

$GPTXT,01,01,01,NMEA unknown msg*58

$GPGSV,3,3,12,22,32,082,23,24,05,325,19,28,66,317,11,30,26,200,23*74

$GPGLL,4044.71539,N,07401.49678,W,030549.00,A,A*7B

$GPTXT,01,01,01,NMEA unknown msg*58

$GPTXT,01,01,01,NMEA unknown msg*58

$GPRMC,030550.00,A,4044.71532,N,07401.49705,W,0.262,,171221,,,A*6A

$GPVTG,,T,,M,0.262,N,0.486,K,A*2F

$GPGGA,030550.00,4044.71532,N,07401.49705,W,1,08,0.94,40.6,M,-34.4,M,,*5F

$GPGSA,A,3,14,03,17,30,21,06,01,24,,,,,1.58,0.94,1.27*06

$GPTXT,01,01,01,NMEA unknown msg*58

$GPTXT,01,01,01,NMEA unknown msg*58

$GPGSV,3,1,12,01,47,049,34,03,29,111,28,06,22,215,17,07,06,179,*7B

$GPGSV,3,2,12,14,88,088,16,17,64,307,23,19,41,278,08,21,22,047,33*70

$GPTXT,01,01,01,NMEA unknown msg*58

$GPTXT,01,01,01,NMEA unknown msg*58

$GPGSV,3,3,12,22,32,082,24,24,05,325,19,28,66,317,15,30,26,200,23*77

$GPTXT,01,01,01,NMEA unknown msg*58

$GPTXT,01,01,01,NMEA unknown msg*58

$GPTXT,01,01,01,NMEA unknown msg*58

$GPTXT,01,01,01,NMEA unknown msg*58

$GPGLL,4044.71532,N,07401.49705,W,030550.00,A,A*73

$GPTXT,01,01,01,NMEA unknown msg*58

$GPRMC,030551.00,A,4044.71526,N,07401.49715,W,0.166,,171221,,,A*68

$GPVTG,,T,,M,0.166,N,0.308,K,A*29

$GPGGA,030551.00,4044.71526,N,07401.49715,W,1,08,0.94,40.7,M,-34.4,M,,*5B

$GPTXT,01,01,01,NMEA unknown msg*58

$GPGSA,A,3,14,03,17,30,21,06,01,24,,,,,1.58,0.94,1.27*06

$GPGSV,3,1,12,01,47,049,34,03,29,111,28,06,22,215,17,07,06,179,*7B

$GPGSV,3,2,12,14,88,088,15,17,64,307,22,19,41,278,08,21,22,047,33*72

$GPGSV,3,3,12,22,32,082,24,24,05,325,19,28,66,317,15,30,26,200,22*76

$GPGLL,4044.71526,N,07401.49715,W,030551.00,A,A*76

$GPRMC,030552.00,A,4044.71521,N,07401.49722,W,0.074,,171221,,,A*6A

$GPVTG,,T,,M,0.074,N,0.138,K,A*2A

$GPGGA,030552.00,4044.71521,N,07401.49722,W,1,08,0.94,40.7,M,-34.4,M,,*5B

$GPGSA,A,3,14,03,17,30,21,06,01,24,,,,,1.58,0.94,1.27*06

$GPGSV,3,1,12,01,47,049,34,03,29,111,27,06,22,215,17,07,06,179,*74

$GPGSV,3,2,12,14,88,088,15,17,64,307,22,19,41,278,08,21,22,047,33*72

$GPGSV,3,3,12,22,32,082,24,24,05,325,19,28,66,317,15,30,26,200,22*76

$GPGLL,4044.71521,N,07401.49722,W,030552.00,A,A*76

$GPTXT,01,01,01,NMEA unknown msg*58

$GPRMC,030553.00,A,4044.71513,N,07401.49755,W,0.330,,171221,,,A*69

$GPVTG,,T,,M,0.330,N,0.611,K,A*25

$GPGGA,030553.00,4044.71513,N,07401.49755,W,1,08,0.94,40.8,M,-34.4,M,,*54

$GPGSA,A,3,14,03,17,30,21,06,01,24,,,,,1.58,0.94,1.27*06

$GPGSV,3,1,12,01,47,049,34,03,29,111,27,06,22,215,17,07,06,179,*74

$GPGSV,3,2,12,14,88,088,13,17,64,307,22,19,41,278,08,21,22,047,33*74

$GPTXT,01,01,01,NMEA unknown msg*58

$GPGSV,3,3,12,22,32,082,24,24,05,325,19,28,66,317,15,30,26,200,22*76

$GPGLL,4044.71513,N,07401.49755,W,030553.00,A,A*76

$GPRMC,030554.00,A,4044.71498,N,07401.49799,W,0.544,,171221,,,A*69

$GPVTG,,T,,M,0.544,N,1.008,K,A*2F

$GPGGA,030554.00,4044.71498,N,07401.49799,W,1,08,0.94,40.7,M,-34.4,M,,*5E

$GPGSA,A,3,14,03,17,30,21,06,01,24,,,,,1.58,0.94,1.27*06

$GPGSV,3,1,12,01,47,049,34,03,29,111,27,06,22,215,17,07,06,179,*74

$GPGSV,3,2,12,14,88,088,12,17,64,307,22,19,41,278,08,21,22,047,33*75

$GPGSV,3,3,12,22,32,082,24,24,05,325,19,28,66,317,15,30,26,200,23*77

$GPGLL,4044.71498,N,07401.49799,W,030554.00,A,A*73

$GPRMC,030555.00,A,4044.71492,N,07401.49818,W,0.584,,171221,,,A*68

$GPVTG,,T,,M,0.584,N,1.082,K,A*21

$GPGGA,030555.00,4044.71492,N,07401.49818,W,1,08,0.94,40.8,M,-34.4,M,,*5C

$GPGSA,A,3,14,03,17,30,21,06,01,24,,,,,1.58,0.94,1.27*06

$GPGSV,3,1,12,01,47,049,34,03,29,111,27,06,22,215,16,07,06,179,*75

$GPGSV,3,2,12,14,88,088,12,17,64,307,21,19,41,278,08,21,22,047,33*76

$GPTXT,01,01,01,NMEA unknown msg*58

$GPGSV,3,3,12,22,32,081,24,24,05,325,20,28,66,317,15,30,26,200,23*7E

$GPGLL,4044.71492,N,07401.49818,W,030555.00,A,A*7E

$GPRMC,030556.00,A,4044.71488,N,07401.49841,W,0.549,,171221,,,A*6D

$GPVTG,,T,,M,0.549,N,1.016,K,A*2D

$GPGGA,030556.00,4044.71488,N,07401.49841,W,1,09,0.87,40.8,M,-34.4,M,,*5B

$GPTXT,01,01,01,NMEA unknown msg*58

$GPGSA,A,3,14,03,17,30,21,06,01,19,24,,,,1.52,0.87,1.25*04

$GPGSV,3,1,12,01,47,049,34,03,29,111,27,06,22,215,15,07,06,179,*76

$GPGSV,3,2,12,14,88,088,12,17,64,307,21,19,41,278,14,21,22,047,33*7B

$GPTXT,01,01,01,NMEA unknown msg*58

$GPGSV,3,3,12,22,32,081,23,24,05,325,19,28,66,317,16,30,26,200,23*70

$GPGLL,4044.71488,N,07401.49841,W,030556.00,A,A*7A

$GPRMC,030557.00,A,4044.71490,N,07401.49821,W,0.218,,171221,,,A*60

$GPVTG,,T,,M,0.218,N,0.404,K,A*28

$GPGGA,030557.00,4044.71490,N,07401.49821,W,1,09,0.96,41.0,M,-34.4,M,,*5C

$GPGSA,A,3,14,03,17,30,21,06,01,19,24,,,,1.85,0.96,1.58*04

$GPGSV,3,1,12,01,47,049,34,03,29,111,27,06,22,215,15,07,06,179,*76

$GPGSV,3,2,12,14,88,088,10,17,64,307,20,19,41,278,14,21,22,047,33*78

$GPTXT,01,01,01,NMEA unknown msg*58

$GPGSV,3,3,12,22,32,081,23,24,06,325,19,28,66,317,16,30,26,200,23*73

$GPTXT,01,01,01,NMEA unknown msg*58

$GPGLL,4044.71490,N,07401.49821,W,030557.00,A,A*74

$GPTXT,01,01,01,NMEA unknown msg*58

$GPRMC,030558.00,A,4044.71493,N,07401.49785,W,0.267,,171221,,,A*65

$GPVTG,,T,,M,0.267,N,0.495,K,A*28

$GPGGA,030558.00,4044.71493,N,07401.49785,W,1,08,0.96,41.2,M,-34.4,M,,*52

$GPGSA,A,3,03,17,30,21,06,01,19,24,,,,,1.85,0.96,1.58*01

$GPGSV,3,1,12,01,47,049,34,03,29,111,27,06,22,215,15,07,06,179,*76

$GPGSV,3,2,12,14,88,088,09,17,64,307,20,19,41,278,14,21,22,047,33*70

$GPGSV,3,3,12,22,32,081,23,24,06,325,20,28,66,317,16,30,26,200,23*79

$GPGLL,4044.71493,N,07401.49785,W,030558.00,A,A*79

$GPTXT,01,01,01,NMEA unknown msg*58

$GPRMC,030559.00,A,4044.71486,N,07401.49789,W,0.262,,171221,,,A*69

$GPVTG,,T,,M,0.262,N,0.486,K,A*2F

$GPGGA,030559.00,4044.71486,N,07401.49789,W,1,08,0.87,41.2,M,-34.4,M,,*5B

$GPGSA,A,3,03,17,30,21,06,01,19,24,,,,,1.75,0.87,1.52*04

$GPTXT,01,01,01,NMEA unknown msg*58

$GPTXT,01,01,01,NMEA unknown msg*58

$GPGSV,3,1,12,01,47,049,34,03,29,111,27,06,22,215,14,07,06,179,03*74

$GPGSV,3,2,12,14,88,088,,17,64,307,19,19,41,278,14,21,22,047,33*73

$GPGSV,3,3,12,22,32,081,23,24,06,325,20,28,66,317,16,30,26,200,22*78

$GPTXT,01,01,01,NMEA unknown msg*58

$GPTXT,01,01,01,NMEA unknown msg*58

$GPTXT,01,01,01,NMEA unknown msg*58

$GPGLL,4044.71486,N,07401.49789,W,030559.00,A,A*70

$GPRMC,030600.00,A,4044.71483,N,07401.49795,W,0.020,,171221,,,A*6A

$GPVTG,,T,,M,0.020,N,0.037,K,A*25

$GPTXT,01,01,01,NMEA unknown msg*58

$GPGGA,030600.00,4044.71483,N,07401.49795,W,1,08,0.87,41.2,M,-34.4,M,,*5C

$GPTXT,01,01,01,NMEA unknown msg*58

$GPGSA,A,3,03,17,30,21,06,01,19,24,,,,,1.75,0.87,1.52*04

$GPTXT,01,01,01,NMEA unknown msg*58

$GPTXT,01,01,01,NMEA unknown msg*58

$GPTXT,01,01,01,NMEA unknown msg*58

$GPGSV,3,1,12,01,47,049,34,03,29,111,28,06,22,215,14,07,06,179,04*7C

$GPGSV,3,2,12,14,88,088,,17,64,307,19,19,41,278,14,21,22,047,33*73

$GPGSV,3,3,12,22,32,081,23,24,06,325,20,28,66,317,16,30,26,200,22*78

$GPGLL,4044.71483,N,07401.49795,W,030600.00,A,A*77

$GPRMC,030601.00,A,4044.71491,N,07401.49779,W,0.275,,171221,,,A*68

$GPVTG,,T,,M,0.275,N,0.509,K,A*2F

$GPGGA,030601.00,4044.71491,N,07401.49779,W,1,08,0.96,41.2,M,-34.4,M,,*5C

$GPTXT,01,01,01,NMEA unknown msg*58

$GPGSA,A,3,03,17,30,21,06,01,19,24,,,,,1.85,0.96,1.58*01

$GPTXT,01,01,01,NMEA unknown msg*58

$GPTXT,01,01,01,NMEA unknown msg*58

$GPGSV,3,1,12,01,47,049,34,03,29,111,28,06,22,215,15,07,06,179,04*7D

$GPGSV,3,2,12,14,88,088,,17,64,307,18,19,41,278,14,21,22,047,33*72

$GPGSV,3,3,12,22,32,081,23,24,06,325,20,28,67,317,16,30,26,200,23*78

$GPGLL,4044.71491,N,07401.49779,W,030601.00,A,A*77

$GPRMC,030602.00,A,4044.71497,N,07401.49773,W,0.206,,171221,,,A*63

$GPVTG,,T,,M,0.206,N,0.381,K,A*2D

$GPGGA,030602.00,4044.71497,N,07401.49773,W,1,08,0.96,41.1,M,-34.4,M,,*50

$GPGSA,A,3,03,17,30,21,06,01,19,24,,,,,1.85,0.96,1.58*01

$GPGSV,3,1,12,01,47,049,34,03,29,111,28,06,22,215,13,07,06,179,06*79

$GPGSV,3,2,12,14,88,088,,17,64,307,18,19,41,278,15,21,22,047,33*73

$GPGSV,3,3,12,22,32,081,23,24,06,325,20,28,67,317,12,30,26,200,22*7D

$GPGLL,4044.71497,N,07401.49773,W,030602.00,A,A*78

$GPRMC,030603.00,A,4044.71503,N,07401.49742,W,0.399,,171221,,,A*6B

$GPVTG,,T,,M,0.399,N,0.739,K,A*2D

$GPGGA,030603.00,4044.71503,N,07401.49742,W,1,07,0.96,41.6,M,-34.4,M,,*57

$GPGSA,A,3,03,17,30,21,01,19,24,,,,,,1.85,0.96,1.58*07

$GPGSV,3,1,12,01,47,049,35,03,29,111,28,06,22,215,12,07,06,179,06*79

$GPGSV,3,2,12,14,88,088,,17,64,307,18,19,41,278,15,21,22,047,33*73

$GPGSV,3,3,12,22,32,081,22,24,06,325,20,28,67,317,12,30,26,200,22*7C

$GPTXT,01,01,01,NMEA unknown msg*58

$GPGLL,4044.71503,N,07401.49742,W,030603.00,A,A*77